[
  {
    "capital":"Kabul",
    "code":"af",
    "continent":"Asia",
    "flag_1x1":"flags\/1x1\/af.svg",
    "flag_4x3":"flags\/4x3\/af.svg",
    "iso":true,
    "name":"Afghanistan",
    "coordinates":[
      66.592161311,
      34.1340260138
    ]
  },
  {
    "capital":"Mariehamn",
    "code":"ax",
    "continent":"Europe",
    "flag_1x1":"flags\/1x1\/ax.svg",
    "flag_4x3":"flags\/4x3\/ax.svg",
    "iso":true,
    "name":"Aland Islands",
    "coordinates":null
  },
  {
    "capital":"Tirana",
    "code":"al",
    "continent":"Europe",
    "flag_1x1":"flags\/1x1\/al.svg",
    "flag_4x3":"flags\/4x3\/al.svg",
    "iso":true,
    "name":"Albania",
    "coordinates":[
      20.0610827673,
      41.1416589489
    ]
  },
  {
    "capital":"Algiers",
    "code":"dz",
    "continent":"Africa",
    "flag_1x1":"flags\/1x1\/dz.svg",
    "flag_4x3":"flags\/4x3\/dz.svg",
    "iso":true,
    "name":"Algeria",
    "coordinates":[
      2.655846472,
      28.3509697449
    ]
  },
  {
    "capital":"Pago Pago",
    "code":"as",
    "continent":"Oceania",
    "flag_1x1":"flags\/1x1\/as.svg",
    "flag_4x3":"flags\/4x3\/as.svg",
    "iso":true,
    "name":"American Samoa",
    "coordinates":[
      -170.7007316174,
      -14.3057119878
    ]
  },
  {
    "capital":"Andorra la Vella",
    "code":"ad",
    "continent":"Europe",
    "flag_1x1":"flags\/1x1\/ad.svg",
    "flag_4x3":"flags\/4x3\/ad.svg",
    "iso":true,
    "name":"Andorra",
    "coordinates":[
      1.5802243611,
      42.5485983485
    ]
  },
  {
    "capital":"Luanda",
    "code":"ao",
    "continent":"Africa",
    "flag_1x1":"flags\/1x1\/ao.svg",
    "flag_4x3":"flags\/4x3\/ao.svg",
    "iso":true,
    "name":"Angola",
    "coordinates":[
      17.6517687831,
      -12.1674240627
    ]
  },
  {
    "capital":"The Valley",
    "code":"ai",
    "continent":"North America",
    "flag_1x1":"flags\/1x1\/ai.svg",
    "flag_4x3":"flags\/4x3\/ai.svg",
    "iso":true,
    "name":"Anguilla",
    "coordinates":[
      -63.0600834377,
      18.2228740042
    ]
  },
  {
    "capital":null,
    "code":"aq",
    "continent":null,
    "flag_1x1":"flags\/1x1\/aq.svg",
    "flag_4x3":"flags\/4x3\/aq.svg",
    "iso":true,
    "name":"Antarctica",
    "coordinates":[
      -177.5645161341,
      -77.1698752142
    ]
  },
  {
    "capital":"St. John's",
    "code":"ag",
    "continent":"North America",
    "flag_1x1":"flags\/1x1\/ag.svg",
    "flag_4x3":"flags\/4x3\/ag.svg",
    "iso":true,
    "name":"Antigua and Barbuda",
    "coordinates":[
      -61.7853082323,
      17.0714675937
    ]
  },
  {
    "capital":"Buenos Aires",
    "code":"ar",
    "continent":"South America",
    "flag_1x1":"flags\/1x1\/ar.svg",
    "flag_4x3":"flags\/4x3\/ar.svg",
    "iso":true,
    "name":"Argentina",
    "coordinates":[
      -64.5323850384,
      -35.6972705181
    ]
  },
  {
    "capital":"Yerevan",
    "code":"am",
    "continent":"Asia",
    "flag_1x1":"flags\/1x1\/am.svg",
    "flag_4x3":"flags\/4x3\/am.svg",
    "iso":true,
    "name":"Armenia",
    "coordinates":[
      45.0549083197,
      40.1784127423
    ]
  },
  {
    "capital":"Oranjestad",
    "code":"aw",
    "continent":"South America",
    "flag_1x1":"flags\/1x1\/aw.svg",
    "flag_4x3":"flags\/4x3\/aw.svg",
    "iso":true,
    "name":"Aruba",
    "coordinates":[
      -69.9756401428,
      12.515625723
    ]
  },
  {
    "capital":"Georgetown",
    "code":"sh-ac",
    "continent":"Africa",
    "flag_1x1":"flags\/1x1\/sh-ac.svg",
    "flag_4x3":"flags\/4x3\/sh-ac.svg",
    "iso":false,
    "name":"Ascension Island",
    "coordinates":null
  },
  {
    "capital":"Canberra",
    "code":"au",
    "continent":"Oceania",
    "flag_1x1":"flags\/1x1\/au.svg",
    "flag_4x3":"flags\/4x3\/au.svg",
    "iso":true,
    "name":"Australia",
    "coordinates":[
      134.0227717092,
      -25.697337674
    ]
  },
  {
    "capital":"Vienna",
    "code":"at",
    "continent":"Europe",
    "flag_1x1":"flags\/1x1\/at.svg",
    "flag_4x3":"flags\/4x3\/at.svg",
    "iso":true,
    "name":"Austria",
    "coordinates":[
      13.7977783646,
      47.6318582699
    ]
  },
  {
    "capital":"Baku",
    "code":"az",
    "continent":"Asia",
    "flag_1x1":"flags\/1x1\/az.svg",
    "flag_4x3":"flags\/4x3\/az.svg",
    "iso":true,
    "name":"Azerbaijan",
    "coordinates":[
      48.6345926706,
      40.3920509942
    ]
  },
  {
    "capital":"Nassau",
    "code":"bs",
    "continent":"North America",
    "flag_1x1":"flags\/1x1\/bs.svg",
    "flag_4x3":"flags\/4x3\/bs.svg",
    "iso":true,
    "name":"Bahamas",
    "coordinates":[
      -78.0727537006,
      24.7216263365
    ]
  },
  {
    "capital":"Manama",
    "code":"bh",
    "continent":"Asia",
    "flag_1x1":"flags\/1x1\/bh.svg",
    "flag_4x3":"flags\/4x3\/bh.svg",
    "iso":true,
    "name":"Bahrain",
    "coordinates":[
      50.5406954023,
      26.0479850154
    ]
  },
  {
    "capital":"Dhaka",
    "code":"bd",
    "continent":"Asia",
    "flag_1x1":"flags\/1x1\/bd.svg",
    "flag_4x3":"flags\/4x3\/bd.svg",
    "iso":true,
    "name":"Bangladesh",
    "coordinates":[
      90.4321256261,
      23.6737286651
    ]
  },
  {
    "capital":"Bridgetown",
    "code":"bb",
    "continent":"North America",
    "flag_1x1":"flags\/1x1\/bb.svg",
    "flag_4x3":"flags\/4x3\/bb.svg",
    "iso":true,
    "name":"Barbados",
    "coordinates":[
      -59.5573839492,
      13.1832193693
    ]
  },
  {
    "capital":null,
    "code":"es-pv",
    "continent":null,
    "flag_1x1":"flags\/1x1\/es-pv.svg",
    "flag_4x3":"flags\/4x3\/es-pv.svg",
    "iso":false,
    "name":"Basque Country",
    "coordinates":null
  },
  {
    "capital":"Minsk",
    "code":"by",
    "continent":"Europe",
    "flag_1x1":"flags\/1x1\/by.svg",
    "flag_4x3":"flags\/4x3\/by.svg",
    "iso":true,
    "name":"Belarus",
    "coordinates":[
      27.9642520547,
      53.4679137454
    ]
  },
  {
    "capital":"Brussels",
    "code":"be",
    "continent":"Europe",
    "flag_1x1":"flags\/1x1\/be.svg",
    "flag_4x3":"flags\/4x3\/be.svg",
    "iso":true,
    "name":"Belgium",
    "coordinates":[
      4.6750101547,
      50.6182138854
    ]
  },
  {
    "capital":"Belmopan",
    "code":"bz",
    "continent":"North America",
    "flag_1x1":"flags\/1x1\/bz.svg",
    "flag_4x3":"flags\/4x3\/bz.svg",
    "iso":true,
    "name":"Belize",
    "coordinates":[
      -88.6827351002,
      17.2425247665
    ]
  },
  {
    "capital":"Porto-Novo",
    "code":"bj",
    "continent":"Africa",
    "flag_1x1":"flags\/1x1\/bj.svg",
    "flag_4x3":"flags\/4x3\/bj.svg",
    "iso":true,
    "name":"Benin",
    "coordinates":[
      2.3057145288,
      9.5030131996
    ]
  },
  {
    "capital":"Hamilton",
    "code":"bm",
    "continent":"North America",
    "flag_1x1":"flags\/1x1\/bm.svg",
    "flag_4x3":"flags\/4x3\/bm.svg",
    "iso":true,
    "name":"Bermuda",
    "coordinates":[
      -64.7458500599,
      32.3150674307
    ]
  },
  {
    "capital":"Thimphu",
    "code":"bt",
    "continent":"Asia",
    "flag_1x1":"flags\/1x1\/bt.svg",
    "flag_4x3":"flags\/4x3\/bt.svg",
    "iso":true,
    "name":"Bhutan",
    "coordinates":[
      90.4671664717,
      27.4216393396
    ]
  },
  {
    "capital":"Sucre",
    "code":"bo",
    "continent":"South America",
    "flag_1x1":"flags\/1x1\/bo.svg",
    "flag_4x3":"flags\/4x3\/bo.svg",
    "iso":true,
    "name":"Bolivia",
    "coordinates":[
      -64.4520959751,
      -16.7312488394
    ]
  },
  {
    "capital":"Kralendijk",
    "code":"bq",
    "continent":"South America",
    "flag_1x1":"flags\/1x1\/bq.svg",
    "flag_4x3":"flags\/4x3\/bq.svg",
    "iso":true,
    "name":"Bonaire, Sint Eustatius and Saba",
    "coordinates":[
      -68.2935044596,
      12.1808449824
    ]
  },
  {
    "capital":"Kralendijk",
    "code":"bq",
    "continent":"South America",
    "flag_1x1":"flags\/1x1\/bq.svg",
    "flag_4x3":"flags\/4x3\/bq.svg",
    "iso":true,
    "name":"Bonaire, Sint Eustatius and Saba",
    "coordinates":[
      -63.2373948191,
      17.6325126164
    ]
  },
  {
    "capital":"Kralendijk",
    "code":"bq",
    "continent":"South America",
    "flag_1x1":"flags\/1x1\/bq.svg",
    "flag_4x3":"flags\/4x3\/bq.svg",
    "iso":true,
    "name":"Bonaire, Sint Eustatius and Saba",
    "coordinates":[
      -62.9782305894,
      17.4919042294
    ]
  },
  {
    "capital":"Sarajevo",
    "code":"ba",
    "continent":"Europe",
    "flag_1x1":"flags\/1x1\/ba.svg",
    "flag_4x3":"flags\/4x3\/ba.svg",
    "iso":true,
    "name":"Bosnia and Herzegovina",
    "coordinates":[
      17.8346724079,
      44.1441535613
    ]
  },
  {
    "capital":"Gaborone",
    "code":"bw",
    "continent":"Africa",
    "flag_1x1":"flags\/1x1\/bw.svg",
    "flag_4x3":"flags\/4x3\/bw.svg",
    "iso":true,
    "name":"Botswana",
    "coordinates":[
      23.85779957,
      -22.2366090021
    ]
  },
  {
    "capital":null,
    "code":"bv",
    "continent":null,
    "flag_1x1":"flags\/1x1\/bv.svg",
    "flag_4x3":"flags\/4x3\/bv.svg",
    "iso":true,
    "name":"Bouvet Island",
    "coordinates":[
      3.4119694651,
      -54.423166794
    ]
  },
  {
    "capital":"Bras\u00edlia",
    "code":"br",
    "continent":"South America",
    "flag_1x1":"flags\/1x1\/br.svg",
    "flag_4x3":"flags\/4x3\/br.svg",
    "iso":true,
    "name":"Brazil",
    "coordinates":[
      -54.3552066083,
      -11.5246304164
    ]
  },
  {
    "capital":"Diego Garcia",
    "code":"io",
    "continent":"Asia",
    "flag_1x1":"flags\/1x1\/io.svg",
    "flag_4x3":"flags\/4x3\/io.svg",
    "iso":true,
    "name":"British Indian Ocean Territory",
    "coordinates":[
      72.4350161848,
      -7.3235484444
    ]
  },
  {
    "capital":"Bandar Seri Begawan",
    "code":"bn",
    "continent":"Asia",
    "flag_1x1":"flags\/1x1\/bn.svg",
    "flag_4x3":"flags\/4x3\/bn.svg",
    "iso":true,
    "name":"Brunei Darussalam",
    "coordinates":[
      114.643095836,
      4.5432058899
    ]
  },
  {
    "capital":"Sofia",
    "code":"bg",
    "continent":"Europe",
    "flag_1x1":"flags\/1x1\/bg.svg",
    "flag_4x3":"flags\/4x3\/bg.svg",
    "iso":true,
    "name":"Bulgaria",
    "coordinates":[
      25.2517391226,
      42.820436773
    ]
  },
  {
    "capital":"Ouagadougou",
    "code":"bf",
    "continent":"Africa",
    "flag_1x1":"flags\/1x1\/bf.svg",
    "flag_4x3":"flags\/4x3\/bf.svg",
    "iso":true,
    "name":"Burkina Faso",
    "coordinates":[
      -1.6932816212,
      12.1087090363
    ]
  },
  {
    "capital":"Bujumbura",
    "code":"bi",
    "continent":"Africa",
    "flag_1x1":"flags\/1x1\/bi.svg",
    "flag_4x3":"flags\/4x3\/bi.svg",
    "iso":true,
    "name":"Burundi",
    "coordinates":[
      29.8851822785,
      -3.2612519933
    ]
  },
  {
    "capital":"Praia",
    "code":"cv",
    "continent":"Africa",
    "flag_1x1":"flags\/1x1\/cv.svg",
    "flag_4x3":"flags\/4x3\/cv.svg",
    "iso":true,
    "name":"Cabo Verde",
    "coordinates":[
      -23.634010059,
      15.0764115187
    ]
  },
  {
    "capital":"Phnom Penh",
    "code":"kh",
    "continent":"Asia",
    "flag_1x1":"flags\/1x1\/kh.svg",
    "flag_4x3":"flags\/4x3\/kh.svg",
    "iso":true,
    "name":"Cambodia",
    "coordinates":[
      105.0397307868,
      12.6991868655
    ]
  },
  {
    "capital":"Yaound\u00e9",
    "code":"cm",
    "continent":"Africa",
    "flag_1x1":"flags\/1x1\/cm.svg",
    "flag_4x3":"flags\/4x3\/cm.svg",
    "iso":true,
    "name":"Cameroon",
    "coordinates":[
      12.9484741424,
      6.2941684875
    ]
  },
  {
    "capital":"Ottawa",
    "code":"ca",
    "continent":"North America",
    "flag_1x1":"flags\/1x1\/ca.svg",
    "flag_4x3":"flags\/4x3\/ca.svg",
    "iso":true,
    "name":"Canada",
    "coordinates":[
      -98.4168051787,
      57.5504800447
    ]
  },
  {
    "capital":null,
    "code":"ic",
    "continent":null,
    "flag_1x1":"flags\/1x1\/ic.svg",
    "flag_4x3":"flags\/4x3\/ic.svg",
    "iso":false,
    "name":"Canary Islands",
    "coordinates":null
  },
  {
    "capital":null,
    "code":"es-ct",
    "continent":null,
    "flag_1x1":"flags\/1x1\/es-ct.svg",
    "flag_4x3":"flags\/4x3\/es-ct.svg",
    "iso":false,
    "name":"Catalonia",
    "coordinates":null
  },
  {
    "capital":"George Town",
    "code":"ky",
    "continent":"North America",
    "flag_1x1":"flags\/1x1\/ky.svg",
    "flag_4x3":"flags\/4x3\/ky.svg",
    "iso":true,
    "name":"Cayman Islands",
    "coordinates":[
      -81.2520320898,
      19.3112318056
    ]
  },
  {
    "capital":"Bangui",
    "code":"cf",
    "continent":"Africa",
    "flag_1x1":"flags\/1x1\/cf.svg",
    "flag_4x3":"flags\/4x3\/cf.svg",
    "iso":true,
    "name":"Central African Republic",
    "coordinates":[
      20.5207434194,
      6.3313900339
    ]
  },
  {
    "capital":null,
    "code":"cefta",
    "continent":null,
    "flag_1x1":"flags\/1x1\/cefta.svg",
    "flag_4x3":"flags\/4x3\/cefta.svg",
    "iso":false,
    "name":"Central European Free Trade Agreement",
    "coordinates":null
  },
  {
    "capital":"N'Djamena",
    "code":"td",
    "continent":"Africa",
    "flag_1x1":"flags\/1x1\/td.svg",
    "flag_4x3":"flags\/4x3\/td.svg",
    "iso":true,
    "name":"Chad",
    "coordinates":[
      18.4271139004,
      15.2834935467
    ]
  },
  {
    "capital":"Santiago",
    "code":"cl",
    "continent":"South America",
    "flag_1x1":"flags\/1x1\/cl.svg",
    "flag_4x3":"flags\/4x3\/cl.svg",
    "iso":true,
    "name":"Chile",
    "coordinates":[
      -70.7686343174,
      -37.8293828305
    ]
  },
  {
    "capital":"Beijing",
    "code":"cn",
    "continent":"Asia",
    "flag_1x1":"flags\/1x1\/cn.svg",
    "flag_4x3":"flags\/4x3\/cn.svg",
    "iso":true,
    "name":"China",
    "coordinates":[
      104.6911385585,
      38.0732548111
    ]
  },
  {
    "capital":"Flying Fish Cove",
    "code":"cx",
    "continent":"Asia",
    "flag_1x1":"flags\/1x1\/cx.svg",
    "flag_4x3":"flags\/4x3\/cx.svg",
    "iso":true,
    "name":"Christmas Island",
    "coordinates":[
      105.702095122,
      -10.4464408022
    ]
  },
  {
    "capital":null,
    "code":"cp",
    "continent":null,
    "flag_1x1":"flags\/1x1\/cp.svg",
    "flag_4x3":"flags\/4x3\/cp.svg",
    "iso":false,
    "name":"Clipperton Island",
    "coordinates":null
  },
  {
    "capital":"West Island",
    "code":"cc",
    "continent":"Asia",
    "flag_1x1":"flags\/1x1\/cc.svg",
    "flag_4x3":"flags\/4x3\/cc.svg",
    "iso":true,
    "name":"Cocos (Keeling) Islands",
    "coordinates":[
      96.8368876732,
      -12.1712494502
    ]
  },
  {
    "capital":"Bogot\u00e1",
    "code":"co",
    "continent":"South America",
    "flag_1x1":"flags\/1x1\/co.svg",
    "flag_4x3":"flags\/4x3\/co.svg",
    "iso":true,
    "name":"Colombia",
    "coordinates":[
      -72.6445066243,
      4.1877538774
    ]
  },
  {
    "capital":"Moroni",
    "code":"km",
    "continent":"Africa",
    "flag_1x1":"flags\/1x1\/km.svg",
    "flag_4x3":"flags\/4x3\/km.svg",
    "iso":true,
    "name":"Comoros",
    "coordinates":[
      43.3482658743,
      -11.6588614745
    ]
  },
  {
    "capital":"Avarua",
    "code":"ck",
    "continent":"Oceania",
    "flag_1x1":"flags\/1x1\/ck.svg",
    "flag_4x3":"flags\/4x3\/ck.svg",
    "iso":true,
    "name":"Cook Islands",
    "coordinates":[
      -159.7876887095,
      -21.2226132534
    ]
  },
  {
    "capital":"San Jos\u00e9",
    "code":"cr",
    "continent":"North America",
    "flag_1x1":"flags\/1x1\/cr.svg",
    "flag_4x3":"flags\/4x3\/cr.svg",
    "iso":true,
    "name":"Costa Rica",
    "coordinates":[
      -84.146736257,
      9.8634674074
    ]
  },
  {
    "capital":"Zagreb",
    "code":"hr",
    "continent":"Europe",
    "flag_1x1":"flags\/1x1\/hr.svg",
    "flag_4x3":"flags\/4x3\/hr.svg",
    "iso":true,
    "name":"Croatia",
    "coordinates":[
      16.6257611296,
      44.9119210086
    ]
  },
  {
    "capital":"Havana",
    "code":"cu",
    "continent":"North America",
    "flag_1x1":"flags\/1x1\/cu.svg",
    "flag_4x3":"flags\/4x3\/cu.svg",
    "iso":true,
    "name":"Cuba",
    "coordinates":[
      -79.6981785762,
      21.4761765229
    ]
  },
  {
    "capital":"Willemstad",
    "code":"cw",
    "continent":"South America",
    "flag_1x1":"flags\/1x1\/cw.svg",
    "flag_4x3":"flags\/4x3\/cw.svg",
    "iso":true,
    "name":"Cura\u00e7ao",
    "coordinates":[
      -68.969397686,
      12.1999966479
    ]
  },
  {
    "capital":"Nicosia",
    "code":"cy",
    "continent":"Europe",
    "flag_1x1":"flags\/1x1\/cy.svg",
    "flag_4x3":"flags\/4x3\/cy.svg",
    "iso":true,
    "name":"Cyprus",
    "coordinates":[
      33.3753460092,
      35.1170041635
    ]
  },
  {
    "capital":"Prague",
    "code":"cz",
    "continent":"Europe",
    "flag_1x1":"flags\/1x1\/cz.svg",
    "flag_4x3":"flags\/4x3\/cz.svg",
    "iso":true,
    "name":"Czech Republic",
    "coordinates":[
      15.383273292,
      49.7491737093
    ]
  },
  {
    "capital":"Yamoussoukro",
    "code":"ci",
    "continent":"Africa",
    "flag_1x1":"flags\/1x1\/ci.svg",
    "flag_4x3":"flags\/4x3\/ci.svg",
    "iso":true,
    "name":"C\u00f4te d'Ivoire",
    "coordinates":[
      -5.5717101949,
      7.5367792794
    ]
  },
  {
    "capital":"Kinshasa",
    "code":"cd",
    "continent":"Africa",
    "flag_1x1":"flags\/1x1\/cd.svg",
    "flag_4x3":"flags\/4x3\/cd.svg",
    "iso":true,
    "name":"Democratic Republic of the Congo",
    "coordinates":[
      23.4198275743,
      -3.3386295962
    ]
  },
  {
    "capital":"Copenhagen",
    "code":"dk",
    "continent":"Europe",
    "flag_1x1":"flags\/1x1\/dk.svg",
    "flag_4x3":"flags\/4x3\/dk.svg",
    "iso":true,
    "name":"Denmark",
    "coordinates":[
      9.3786705424,
      56.0011881797
    ]
  },
  {
    "capital":null,
    "code":"dg",
    "continent":null,
    "flag_1x1":"flags\/1x1\/dg.svg",
    "flag_4x3":"flags\/4x3\/dg.svg",
    "iso":false,
    "name":"Diego Garcia",
    "coordinates":null
  },
  {
    "capital":"Djibouti",
    "code":"dj",
    "continent":"Africa",
    "flag_1x1":"flags\/1x1\/dj.svg",
    "flag_4x3":"flags\/4x3\/dj.svg",
    "iso":true,
    "name":"Djibouti",
    "coordinates":[
      42.6134968988,
      11.7502357276
    ]
  },
  {
    "capital":"Roseau",
    "code":"dm",
    "continent":"North America",
    "flag_1x1":"flags\/1x1\/dm.svg",
    "flag_4x3":"flags\/4x3\/dm.svg",
    "iso":true,
    "name":"Dominica",
    "coordinates":[
      -61.3604719469,
      15.4292698609
    ]
  },
  {
    "capital":"Santo Domingo",
    "code":"do",
    "continent":"North America",
    "flag_1x1":"flags\/1x1\/do.svg",
    "flag_4x3":"flags\/4x3\/do.svg",
    "iso":true,
    "name":"Dominican Republic",
    "coordinates":[
      -70.4349519852,
      18.7795481852
    ]
  },
  {
    "capital":null,
    "code":"eac",
    "continent":null,
    "flag_1x1":"flags\/1x1\/eac.svg",
    "flag_4x3":"flags\/4x3\/eac.svg",
    "iso":false,
    "name":"East African Community",
    "coordinates":null
  },
  {
    "capital":"Quito",
    "code":"ec",
    "continent":"South America",
    "flag_1x1":"flags\/1x1\/ec.svg",
    "flag_4x3":"flags\/4x3\/ec.svg",
    "iso":true,
    "name":"Ecuador",
    "coordinates":[
      -78.463032611,
      -1.5642721389
    ]
  },
  {
    "capital":"Cairo",
    "code":"eg",
    "continent":"Africa",
    "flag_1x1":"flags\/1x1\/eg.svg",
    "flag_4x3":"flags\/4x3\/eg.svg",
    "iso":true,
    "name":"Egypt",
    "coordinates":[
      30.240135435,
      26.6051703445
    ]
  },
  {
    "capital":"San Salvador",
    "code":"sv",
    "continent":"North America",
    "flag_1x1":"flags\/1x1\/sv.svg",
    "flag_4x3":"flags\/4x3\/sv.svg",
    "iso":true,
    "name":"El Salvador",
    "coordinates":[
      -88.8591148924,
      13.7580415171
    ]
  },
  {
    "capital":"London",
    "code":"gb-eng",
    "continent":"Europe",
    "flag_1x1":"flags\/1x1\/gb-eng.svg",
    "flag_4x3":"flags\/4x3\/gb-eng.svg",
    "iso":false,
    "name":"England",
    "coordinates":null
  },
  {
    "capital":"Malabo",
    "code":"gq",
    "continent":"Africa",
    "flag_1x1":"flags\/1x1\/gq.svg",
    "flag_4x3":"flags\/4x3\/gq.svg",
    "iso":true,
    "name":"Equatorial Guinea",
    "coordinates":[
      10.4254566724,
      1.5954643937
    ]
  },
  {
    "capital":"Asmara",
    "code":"er",
    "continent":"Africa",
    "flag_1x1":"flags\/1x1\/er.svg",
    "flag_4x3":"flags\/4x3\/er.svg",
    "iso":true,
    "name":"Eritrea",
    "coordinates":[
      39.267240145,
      15.0055331477
    ]
  },
  {
    "capital":"Tallinn",
    "code":"ee",
    "continent":"Europe",
    "flag_1x1":"flags\/1x1\/ee.svg",
    "flag_4x3":"flags\/4x3\/ee.svg",
    "iso":true,
    "name":"Estonia",
    "coordinates":[
      25.9168702506,
      58.6481083112
    ]
  },
  {
    "capital":"Lobamba, Mbabane",
    "code":"sz",
    "continent":"Africa",
    "flag_1x1":"flags\/1x1\/sz.svg",
    "flag_4x3":"flags\/4x3\/sz.svg",
    "iso":true,
    "name":"Eswatini",
    "coordinates":[
      31.5106857461,
      -26.5625409356
    ]
  },
  {
    "capital":"Addis Ababa",
    "code":"et",
    "continent":"Africa",
    "flag_1x1":"flags\/1x1\/et.svg",
    "flag_4x3":"flags\/4x3\/et.svg",
    "iso":true,
    "name":"Ethiopia",
    "coordinates":[
      39.9149028865,
      8.729389557
    ]
  },
  {
    "capital":null,
    "code":"eu",
    "continent":null,
    "flag_1x1":"flags\/1x1\/eu.svg",
    "flag_4x3":"flags\/4x3\/eu.svg",
    "iso":false,
    "name":"Europe",
    "coordinates":null
  },
  {
    "capital":"Stanley",
    "code":"fk",
    "continent":"South America",
    "flag_1x1":"flags\/1x1\/fk.svg",
    "flag_4x3":"flags\/4x3\/fk.svg",
    "iso":true,
    "name":"Falkland Islands",
    "coordinates":[
      -58.7466463638,
      -51.7590131277
    ]
  },
  {
    "capital":"T\u00f3rshavn",
    "code":"fo",
    "continent":"Europe",
    "flag_1x1":"flags\/1x1\/fo.svg",
    "flag_4x3":"flags\/4x3\/fo.svg",
    "iso":true,
    "name":"Faroe Islands",
    "coordinates":[
      -6.9811060913,
      62.1308962815
    ]
  },
  {
    "capital":"Palikir",
    "code":"fm",
    "continent":"Oceania",
    "flag_1x1":"flags\/1x1\/fm.svg",
    "flag_4x3":"flags\/4x3\/fm.svg",
    "iso":true,
    "name":"Federated States of Micronesia",
    "coordinates":[
      158.2291899445,
      6.8789448129
    ]
  },
  {
    "capital":"Suva",
    "code":"fj",
    "continent":"Oceania",
    "flag_1x1":"flags\/1x1\/fj.svg",
    "flag_4x3":"flags\/4x3\/fj.svg",
    "iso":true,
    "name":"Fiji",
    "coordinates":[
      177.9814461373,
      -17.8224709523
    ]
  },
  {
    "capital":"Helsinki",
    "code":"fi",
    "continent":"Europe",
    "flag_1x1":"flags\/1x1\/fi.svg",
    "flag_4x3":"flags\/4x3\/fi.svg",
    "iso":true,
    "name":"Finland",
    "coordinates":[
      25.6573843345,
      65.0157895975
    ]
  },
  {
    "capital":"Paris",
    "code":"fr",
    "continent":"Europe",
    "flag_1x1":"flags\/1x1\/fr.svg",
    "flag_4x3":"flags\/4x3\/fr.svg",
    "iso":true,
    "name":"France",
    "coordinates":[
      2.1940236628,
      46.6423682169
    ]
  },
  {
    "capital":"Cayenne",
    "code":"gf",
    "continent":"South America",
    "flag_1x1":"flags\/1x1\/gf.svg",
    "flag_4x3":"flags\/4x3\/gf.svg",
    "iso":true,
    "name":"French Guiana",
    "coordinates":[
      -53.3223230716,
      3.8574297425
    ]
  },
  {
    "capital":"Papeete",
    "code":"pf",
    "continent":"Oceania",
    "flag_1x1":"flags\/1x1\/pf.svg",
    "flag_4x3":"flags\/4x3\/pf.svg",
    "iso":true,
    "name":"French Polynesia",
    "coordinates":[
      -149.400416711,
      -17.6746840801
    ]
  },
  {
    "capital":"Saint-Pierre, R\u00e9union",
    "code":"tf",
    "continent":"Africa",
    "flag_1x1":"flags\/1x1\/tf.svg",
    "flag_4x3":"flags\/4x3\/tf.svg",
    "iso":true,
    "name":"French Southern Territories",
    "coordinates":[
      42.7437476109,
      -17.0644919363
    ]
  },
  {
    "capital":"Saint-Pierre, R\u00e9union",
    "code":"tf",
    "continent":"Africa",
    "flag_1x1":"flags\/1x1\/tf.svg",
    "flag_4x3":"flags\/4x3\/tf.svg",
    "iso":true,
    "name":"French Southern Territories",
    "coordinates":[
      69.5468698472,
      -49.2632968711
    ]
  },
  {
    "capital":"Saint-Pierre, R\u00e9union",
    "code":"tf",
    "continent":"Africa",
    "flag_1x1":"flags\/1x1\/tf.svg",
    "flag_4x3":"flags\/4x3\/tf.svg",
    "iso":true,
    "name":"French Southern Territories",
    "coordinates":[
      47.2909480815,
      -11.5662248716
    ]
  },
  {
    "capital":"Libreville",
    "code":"ga",
    "continent":"Africa",
    "flag_1x1":"flags\/1x1\/ga.svg",
    "flag_4x3":"flags\/4x3\/ga.svg",
    "iso":true,
    "name":"Gabon",
    "coordinates":[
      11.8394108985,
      -0.6284484599
    ]
  },
  {
    "capital":null,
    "code":"es-ga",
    "continent":null,
    "flag_1x1":"flags\/1x1\/es-ga.svg",
    "flag_4x3":"flags\/4x3\/es-ga.svg",
    "iso":false,
    "name":"Galicia",
    "coordinates":null
  },
  {
    "capital":"Banjul",
    "code":"gm",
    "continent":"Africa",
    "flag_1x1":"flags\/1x1\/gm.svg",
    "flag_4x3":"flags\/4x3\/gm.svg",
    "iso":true,
    "name":"Gambia",
    "coordinates":[
      -15.3833803859,
      13.4286179592
    ]
  },
  {
    "capital":"Tbilisi",
    "code":"ge",
    "continent":"Asia",
    "flag_1x1":"flags\/1x1\/ge.svg",
    "flag_4x3":"flags\/4x3\/ge.svg",
    "iso":true,
    "name":"Georgia",
    "coordinates":[
      43.3788665341,
      42.1798627774
    ]
  },
  {
    "capital":"Berlin",
    "code":"de",
    "continent":"Europe",
    "flag_1x1":"flags\/1x1\/de.svg",
    "flag_4x3":"flags\/4x3\/de.svg",
    "iso":true,
    "name":"Germany",
    "coordinates":[
      10.4261714274,
      51.083045398
    ]
  },
  {
    "capital":"Accra",
    "code":"gh",
    "continent":"Africa",
    "flag_1x1":"flags\/1x1\/gh.svg",
    "flag_4x3":"flags\/4x3\/gh.svg",
    "iso":true,
    "name":"Ghana",
    "coordinates":[
      -1.2192333625,
      7.9453046724
    ]
  },
  {
    "capital":"Gibraltar",
    "code":"gi",
    "continent":"Europe",
    "flag_1x1":"flags\/1x1\/gi.svg",
    "flag_4x3":"flags\/4x3\/gi.svg",
    "iso":true,
    "name":"Gibraltar",
    "coordinates":[
      -5.3455494846,
      36.1402267134
    ]
  },
  {
    "capital":"Athens",
    "code":"gr",
    "continent":"Europe",
    "flag_1x1":"flags\/1x1\/gr.svg",
    "flag_4x3":"flags\/4x3\/gr.svg",
    "iso":true,
    "name":"Greece",
    "coordinates":[
      23.1103689362,
      39.4201226173
    ]
  },
  {
    "capital":"Nuuk",
    "code":"gl",
    "continent":"North America",
    "flag_1x1":"flags\/1x1\/gl.svg",
    "flag_4x3":"flags\/4x3\/gl.svg",
    "iso":true,
    "name":"Greenland",
    "coordinates":[
      -42.0756778807,
      74.1684721897
    ]
  },
  {
    "capital":"St. George's",
    "code":"gd",
    "continent":"North America",
    "flag_1x1":"flags\/1x1\/gd.svg",
    "flag_4x3":"flags\/4x3\/gd.svg",
    "iso":true,
    "name":"Grenada",
    "coordinates":[
      -61.679379372,
      12.1129266563
    ]
  },
  {
    "capital":"Basse-Terre",
    "code":"gp",
    "continent":"North America",
    "flag_1x1":"flags\/1x1\/gp.svg",
    "flag_4x3":"flags\/4x3\/gp.svg",
    "iso":true,
    "name":"Guadeloupe",
    "coordinates":[
      -61.5438226228,
      16.2442000271
    ]
  },
  {
    "capital":"Hag\u00e5t\u00f1a",
    "code":"gu",
    "continent":"Oceania",
    "flag_1x1":"flags\/1x1\/gu.svg",
    "flag_4x3":"flags\/4x3\/gu.svg",
    "iso":true,
    "name":"Guam",
    "coordinates":[
      144.780244583,
      13.4454304799
    ]
  },
  {
    "capital":"Guatemala City",
    "code":"gt",
    "continent":"North America",
    "flag_1x1":"flags\/1x1\/gt.svg",
    "flag_4x3":"flags\/4x3\/gt.svg",
    "iso":true,
    "name":"Guatemala",
    "coordinates":[
      -90.3121934912,
      15.8208785154
    ]
  },
  {
    "capital":"Saint Peter Port",
    "code":"gg",
    "continent":"Europe",
    "flag_1x1":"flags\/1x1\/gg.svg",
    "flag_4x3":"flags\/4x3\/gg.svg",
    "iso":true,
    "name":"Guernsey",
    "coordinates":[
      -2.5763925829,
      49.4587077138
    ]
  },
  {
    "capital":"Conakry",
    "code":"gn",
    "continent":"Africa",
    "flag_1x1":"flags\/1x1\/gn.svg",
    "flag_4x3":"flags\/4x3\/gn.svg",
    "iso":true,
    "name":"Guinea",
    "coordinates":[
      -10.986948848,
      10.2559865414
    ]
  },
  {
    "capital":"Bissau",
    "code":"gw",
    "continent":"Africa",
    "flag_1x1":"flags\/1x1\/gw.svg",
    "flag_4x3":"flags\/4x3\/gw.svg",
    "iso":true,
    "name":"Guinea-Bissau",
    "coordinates":[
      -14.9801867569,
      11.9800753248
    ]
  },
  {
    "capital":"Georgetown",
    "code":"gy",
    "continent":"South America",
    "flag_1x1":"flags\/1x1\/gy.svg",
    "flag_4x3":"flags\/4x3\/gy.svg",
    "iso":true,
    "name":"Guyana",
    "coordinates":[
      -58.9135261275,
      4.6821198139
    ]
  },
  {
    "capital":"Port-au-Prince",
    "code":"ht",
    "continent":"North America",
    "flag_1x1":"flags\/1x1\/ht.svg",
    "flag_4x3":"flags\/4x3\/ht.svg",
    "iso":true,
    "name":"Haiti",
    "coordinates":[
      -72.8929137984,
      18.883520487
    ]
  },
  {
    "capital":null,
    "code":"hm",
    "continent":null,
    "flag_1x1":"flags\/1x1\/hm.svg",
    "flag_4x3":"flags\/4x3\/hm.svg",
    "iso":true,
    "name":"Heard Island and McDonald Islands",
    "coordinates":[
      73.4929856084,
      -53.0841700355
    ]
  },
  {
    "capital":"Vatican City",
    "code":"va",
    "continent":"Europe",
    "flag_1x1":"flags\/1x1\/va.svg",
    "flag_4x3":"flags\/4x3\/va.svg",
    "iso":true,
    "name":"Holy See",
    "coordinates":[
      12.451312917,
      41.9040235132
    ]
  },
  {
    "capital":"Tegucigalpa",
    "code":"hn",
    "continent":"North America",
    "flag_1x1":"flags\/1x1\/hn.svg",
    "flag_4x3":"flags\/4x3\/hn.svg",
    "iso":true,
    "name":"Honduras",
    "coordinates":[
      -86.4925167901,
      14.7403706958
    ]
  },
  {
    "capital":"Hong Kong",
    "code":"hk",
    "continent":"Asia",
    "flag_1x1":"flags\/1x1\/hk.svg",
    "flag_4x3":"flags\/4x3\/hk.svg",
    "iso":true,
    "name":"Hong Kong",
    "coordinates":[
      114.177216,
      22.302711
    ]
  },
  {
    "capital":"Budapest",
    "code":"hu",
    "continent":"Europe",
    "flag_1x1":"flags\/1x1\/hu.svg",
    "flag_4x3":"flags\/4x3\/hu.svg",
    "iso":true,
    "name":"Hungary",
    "coordinates":[
      19.3962004837,
      47.2252733249
    ]
  },
  {
    "capital":"Reykjavik",
    "code":"is",
    "continent":"Europe",
    "flag_1x1":"flags\/1x1\/is.svg",
    "flag_4x3":"flags\/4x3\/is.svg",
    "iso":true,
    "name":"Iceland",
    "coordinates":[
      -19.0568296711,
      65.1236092021
    ]
  },
  {
    "capital":"New Delhi",
    "code":"in",
    "continent":"Asia",
    "flag_1x1":"flags\/1x1\/in.svg",
    "flag_4x3":"flags\/4x3\/in.svg",
    "iso":true,
    "name":"India",
    "coordinates":[
      81.1730040853,
      23.5863005677
    ]
  },
  {
    "capital":"Jakarta",
    "code":"id",
    "continent":"Asia",
    "flag_1x1":"flags\/1x1\/id.svg",
    "flag_4x3":"flags\/4x3\/id.svg",
    "iso":true,
    "name":"Indonesia",
    "coordinates":[
      113.9653824685,
      0.1559197996
    ]
  },
  {
    "capital":"Tehran",
    "code":"ir",
    "continent":"Asia",
    "flag_1x1":"flags\/1x1\/ir.svg",
    "flag_4x3":"flags\/4x3\/ir.svg",
    "iso":true,
    "name":"Iran",
    "coordinates":[
      54.2370770011,
      32.9060237429
    ]
  },
  {
    "capital":"Baghdad",
    "code":"iq",
    "continent":"Asia",
    "flag_1x1":"flags\/1x1\/iq.svg",
    "flag_4x3":"flags\/4x3\/iq.svg",
    "iso":true,
    "name":"Iraq",
    "coordinates":[
      43.8325291811,
      33.1050756675
    ]
  },
  {
    "capital":"Dublin",
    "code":"ie",
    "continent":"Europe",
    "flag_1x1":"flags\/1x1\/ie.svg",
    "flag_4x3":"flags\/4x3\/ie.svg",
    "iso":true,
    "name":"Ireland",
    "coordinates":[
      -8.2411285456,
      53.3048953982
    ]
  },
  {
    "capital":"Douglas",
    "code":"im",
    "continent":"Europe",
    "flag_1x1":"flags\/1x1\/im.svg",
    "flag_4x3":"flags\/4x3\/im.svg",
    "iso":true,
    "name":"Isle of Man",
    "coordinates":[
      -4.5329950555,
      54.2285530101
    ]
  },
  {
    "capital":"Jerusalem",
    "code":"il",
    "continent":"Asia",
    "flag_1x1":"flags\/1x1\/il.svg",
    "flag_4x3":"flags\/4x3\/il.svg",
    "iso":true,
    "name":"Israel",
    "coordinates":[
      35.0279234724,
      31.51354222
    ]
  },
  {
    "capital":"Rome",
    "code":"it",
    "continent":"Europe",
    "flag_1x1":"flags\/1x1\/it.svg",
    "flag_4x3":"flags\/4x3\/it.svg",
    "iso":true,
    "name":"Italy",
    "coordinates":[
      12.7636571661,
      42.9820112761
    ]
  },
  {
    "capital":"Kingston",
    "code":"jm",
    "continent":"North America",
    "flag_1x1":"flags\/1x1\/jm.svg",
    "flag_4x3":"flags\/4x3\/jm.svg",
    "iso":true,
    "name":"Jamaica",
    "coordinates":[
      -77.3035889454,
      18.1220788934
    ]
  },
  {
    "capital":"Tokyo",
    "code":"jp",
    "continent":"Asia",
    "flag_1x1":"flags\/1x1\/jp.svg",
    "flag_4x3":"flags\/4x3\/jp.svg",
    "iso":true,
    "name":"Japan",
    "coordinates":[
      137.4693423435,
      36.767388326
    ]
  },
  {
    "capital":"Saint Helier",
    "code":"je",
    "continent":"Europe",
    "flag_1x1":"flags\/1x1\/je.svg",
    "flag_4x3":"flags\/4x3\/je.svg",
    "iso":true,
    "name":"Jersey",
    "coordinates":[
      -2.1291601163,
      49.2153969257
    ]
  },
  {
    "capital":"Amman",
    "code":"jo",
    "continent":"Asia",
    "flag_1x1":"flags\/1x1\/jo.svg",
    "flag_4x3":"flags\/4x3\/jo.svg",
    "iso":true,
    "name":"Jordan",
    "coordinates":[
      36.9572888455,
      31.3870648844
    ]
  },
  {
    "capital":"Astana",
    "code":"kz",
    "continent":"Asia",
    "flag_1x1":"flags\/1x1\/kz.svg",
    "flag_4x3":"flags\/4x3\/kz.svg",
    "iso":true,
    "name":"Kazakhstan",
    "coordinates":[
      66.3759193479,
      47.6414651952
    ]
  },
  {
    "capital":"Nairobi",
    "code":"ke",
    "continent":"Africa",
    "flag_1x1":"flags\/1x1\/ke.svg",
    "flag_4x3":"flags\/4x3\/ke.svg",
    "iso":true,
    "name":"Kenya",
    "coordinates":[
      37.9530941126,
      0.6899182318
    ]
  },
  {
    "capital":"South Tarawa",
    "code":"ki",
    "continent":"Oceania",
    "flag_1x1":"flags\/1x1\/ki.svg",
    "flag_4x3":"flags\/4x3\/ki.svg",
    "iso":true,
    "name":"Kiribati",
    "coordinates":[
      -157.3902418932,
      1.8676673749
    ]
  },
  {
    "capital":"Pristina",
    "code":"xk",
    "continent":"Europe",
    "flag_1x1":"flags\/1x1\/xk.svg",
    "flag_4x3":"flags\/4x3\/xk.svg",
    "iso":false,
    "name":"Kosovo",
    "coordinates":[
      21.166191,
      42.667542
    ]
  },
  {
    "capital":"Kuwait City",
    "code":"kw",
    "continent":"Asia",
    "flag_1x1":"flags\/1x1\/kw.svg",
    "flag_4x3":"flags\/4x3\/kw.svg",
    "iso":true,
    "name":"Kuwait",
    "coordinates":[
      47.5631110932,
      29.2813609654
    ]
  },
  {
    "capital":"Bishkek",
    "code":"kg",
    "continent":"Asia",
    "flag_1x1":"flags\/1x1\/kg.svg",
    "flag_4x3":"flags\/4x3\/kg.svg",
    "iso":true,
    "name":"Kyrgyzstan",
    "coordinates":[
      74.1753290347,
      41.3569890544
    ]
  },
  {
    "capital":"Vientiane",
    "code":"la",
    "continent":"Asia",
    "flag_1x1":"flags\/1x1\/la.svg",
    "flag_4x3":"flags\/4x3\/la.svg",
    "iso":true,
    "name":"Laos",
    "coordinates":[
      103.7637589903,
      18.1172827369
    ]
  },
  {
    "capital":"Riga",
    "code":"lv",
    "continent":"Europe",
    "flag_1x1":"flags\/1x1\/lv.svg",
    "flag_4x3":"flags\/4x3\/lv.svg",
    "iso":true,
    "name":"Latvia",
    "coordinates":[
      24.6936713257,
      56.8138530476
    ]
  },
  {
    "capital":null,
    "code":"arab",
    "continent":null,
    "flag_1x1":"flags\/1x1\/arab.svg",
    "flag_4x3":"flags\/4x3\/arab.svg",
    "iso":false,
    "name":"League of Arab States",
    "coordinates":null
  },
  {
    "capital":"Beirut",
    "code":"lb",
    "continent":"Asia",
    "flag_1x1":"flags\/1x1\/lb.svg",
    "flag_4x3":"flags\/4x3\/lb.svg",
    "iso":true,
    "name":"Lebanon",
    "coordinates":[
      35.8965194632,
      33.9116017072
    ]
  },
  {
    "capital":"Maseru",
    "code":"ls",
    "continent":"Africa",
    "flag_1x1":"flags\/1x1\/ls.svg",
    "flag_4x3":"flags\/4x3\/ls.svg",
    "iso":true,
    "name":"Lesotho",
    "coordinates":[
      28.2447531786,
      -29.6016811692
    ]
  },
  {
    "capital":"Monrovia",
    "code":"lr",
    "continent":"Africa",
    "flag_1x1":"flags\/1x1\/lr.svg",
    "flag_4x3":"flags\/4x3\/lr.svg",
    "iso":true,
    "name":"Liberia",
    "coordinates":[
      -9.2589889355,
      6.520129794
    ]
  },
  {
    "capital":"Tripoli",
    "code":"ly",
    "continent":"Africa",
    "flag_1x1":"flags\/1x1\/ly.svg",
    "flag_4x3":"flags\/4x3\/ly.svg",
    "iso":true,
    "name":"Libya",
    "coordinates":[
      17.9113339245,
      27.2029157717
    ]
  },
  {
    "capital":"Vaduz",
    "code":"li",
    "continent":"Europe",
    "flag_1x1":"flags\/1x1\/li.svg",
    "flag_4x3":"flags\/4x3\/li.svg",
    "iso":true,
    "name":"Liechtenstein",
    "coordinates":[
      9.5476746724,
      47.1462756213
    ]
  },
  {
    "capital":"Vilnius",
    "code":"lt",
    "continent":"Europe",
    "flag_1x1":"flags\/1x1\/lt.svg",
    "flag_4x3":"flags\/4x3\/lt.svg",
    "iso":true,
    "name":"Lithuania",
    "coordinates":[
      23.946021605,
      55.2943739342
    ]
  },
  {
    "capital":"Luxembourg City",
    "code":"lu",
    "continent":"Europe",
    "flag_1x1":"flags\/1x1\/lu.svg",
    "flag_4x3":"flags\/4x3\/lu.svg",
    "iso":true,
    "name":"Luxembourg",
    "coordinates":[
      6.1032303385,
      49.7752345454
    ]
  },
  {
    "capital":"Macau",
    "code":"mo",
    "continent":"Asia",
    "flag_1x1":"flags\/1x1\/mo.svg",
    "flag_4x3":"flags\/4x3\/mo.svg",
    "iso":true,
    "name":"Macau",
    "coordinates":[
      113.552971,
      22.210928
    ]
  },
  {
    "capital":"Antananarivo",
    "code":"mg",
    "continent":"Africa",
    "flag_1x1":"flags\/1x1\/mg.svg",
    "flag_4x3":"flags\/4x3\/mg.svg",
    "iso":true,
    "name":"Madagascar",
    "coordinates":[
      46.6849346683,
      -19.0416361249
    ]
  },
  {
    "capital":"Lilongwe",
    "code":"mw",
    "continent":"Africa",
    "flag_1x1":"flags\/1x1\/mw.svg",
    "flag_4x3":"flags\/4x3\/mw.svg",
    "iso":true,
    "name":"Malawi",
    "coordinates":[
      34.234411823,
      -13.1289864642
    ]
  },
  {
    "capital":"Kuala Lumpur",
    "code":"my",
    "continent":"Asia",
    "flag_1x1":"flags\/1x1\/my.svg",
    "flag_4x3":"flags\/4x3\/my.svg",
    "iso":true,
    "name":"Malaysia",
    "coordinates":[
      114.6333030399,
      3.6716608556
    ]
  },
  {
    "capital":"Mal\u00e9",
    "code":"mv",
    "continent":"Asia",
    "flag_1x1":"flags\/1x1\/mv.svg",
    "flag_4x3":"flags\/4x3\/mv.svg",
    "iso":true,
    "name":"Maldives",
    "coordinates":[
      73.1007624514,
      -0.6065577168
    ]
  },
  {
    "capital":"Bamako",
    "code":"ml",
    "continent":"Africa",
    "flag_1x1":"flags\/1x1\/ml.svg",
    "flag_4x3":"flags\/4x3\/ml.svg",
    "iso":true,
    "name":"Mali",
    "coordinates":[
      -4.3463998418,
      17.1681462086
    ]
  },
  {
    "capital":"Valletta",
    "code":"mt",
    "continent":"Europe",
    "flag_1x1":"flags\/1x1\/mt.svg",
    "flag_4x3":"flags\/4x3\/mt.svg",
    "iso":true,
    "name":"Malta",
    "coordinates":[
      14.4419224425,
      35.8905226509
    ]
  },
  {
    "capital":"Majuro",
    "code":"mh",
    "continent":"Oceania",
    "flag_1x1":"flags\/1x1\/mh.svg",
    "flag_4x3":"flags\/4x3\/mh.svg",
    "iso":true,
    "name":"Marshall Islands",
    "coordinates":[
      168.7201602535,
      7.307929901
    ]
  },
  {
    "capital":"Fort-de-France",
    "code":"mq",
    "continent":"North America",
    "flag_1x1":"flags\/1x1\/mq.svg",
    "flag_4x3":"flags\/4x3\/mq.svg",
    "iso":true,
    "name":"Martinique",
    "coordinates":[
      -61.0143238088,
      14.6426973536
    ]
  },
  {
    "capital":"Nouakchott",
    "code":"mr",
    "continent":"Africa",
    "flag_1x1":"flags\/1x1\/mr.svg",
    "flag_4x3":"flags\/4x3\/mr.svg",
    "iso":true,
    "name":"Mauritania",
    "coordinates":[
      -10.495079045,
      20.4667312128
    ]
  },
  {
    "capital":"Port Louis",
    "code":"mu",
    "continent":"Africa",
    "flag_1x1":"flags\/1x1\/mu.svg",
    "flag_4x3":"flags\/4x3\/mu.svg",
    "iso":true,
    "name":"Mauritius",
    "coordinates":[
      57.5641567107,
      -20.2814231748
    ]
  },
  {
    "capital":"Mamoudzou",
    "code":"yt",
    "continent":"Africa",
    "flag_1x1":"flags\/1x1\/yt.svg",
    "flag_4x3":"flags\/4x3\/yt.svg",
    "iso":true,
    "name":"Mayotte",
    "coordinates":[
      45.128142327,
      -12.8244684163
    ]
  },
  {
    "capital":"Mexico City",
    "code":"mx",
    "continent":"North America",
    "flag_1x1":"flags\/1x1\/mx.svg",
    "flag_4x3":"flags\/4x3\/mx.svg",
    "iso":true,
    "name":"Mexico",
    "coordinates":[
      -101.5539973163,
      23.8743606809
    ]
  },
  {
    "capital":"Chi\u0219in\u0103u",
    "code":"md",
    "continent":"Europe",
    "flag_1x1":"flags\/1x1\/md.svg",
    "flag_4x3":"flags\/4x3\/md.svg",
    "iso":true,
    "name":"Moldova",
    "coordinates":[
      28.3911118659,
      47.0725674581
    ]
  },
  {
    "capital":"Monaco",
    "code":"mc",
    "continent":"Europe",
    "flag_1x1":"flags\/1x1\/mc.svg",
    "flag_4x3":"flags\/4x3\/mc.svg",
    "iso":true,
    "name":"Monaco",
    "coordinates":[
      7.4128208733,
      43.74798225
    ]
  },
  {
    "capital":"Ulaanbaatar",
    "code":"mn",
    "continent":"Asia",
    "flag_1x1":"flags\/1x1\/mn.svg",
    "flag_4x3":"flags\/4x3\/mn.svg",
    "iso":true,
    "name":"Mongolia",
    "coordinates":[
      103.3987360327,
      47.086444546
    ]
  },
  {
    "capital":"Podgorica",
    "code":"me",
    "continent":"Europe",
    "flag_1x1":"flags\/1x1\/me.svg",
    "flag_4x3":"flags\/4x3\/me.svg",
    "iso":true,
    "name":"Montenegro",
    "coordinates":[
      19.2950508716,
      42.7369483521
    ]
  },
  {
    "capital":"Little Bay, Brades, Plymouth",
    "code":"ms",
    "continent":"North America",
    "flag_1x1":"flags\/1x1\/ms.svg",
    "flag_4x3":"flags\/4x3\/ms.svg",
    "iso":true,
    "name":"Montserrat",
    "coordinates":[
      -62.1869328126,
      16.7353633915
    ]
  },
  {
    "capital":"Rabat",
    "code":"ma",
    "continent":"Africa",
    "flag_1x1":"flags\/1x1\/ma.svg",
    "flag_4x3":"flags\/4x3\/ma.svg",
    "iso":true,
    "name":"Morocco",
    "coordinates":[
      -8.8172125873,
      28.687598135
    ]
  },
  {
    "capital":"Maputo",
    "code":"mz",
    "continent":"Africa",
    "flag_1x1":"flags\/1x1\/mz.svg",
    "flag_4x3":"flags\/4x3\/mz.svg",
    "iso":true,
    "name":"Mozambique",
    "coordinates":[
      35.2085770313,
      -17.5252303095
    ]
  },
  {
    "capital":"Naypyidaw",
    "code":"mm",
    "continent":"Asia",
    "flag_1x1":"flags\/1x1\/mm.svg",
    "flag_4x3":"flags\/4x3\/mm.svg",
    "iso":true,
    "name":"Myanmar",
    "coordinates":[
      97.088922854,
      19.9012279314
    ]
  },
  {
    "capital":"Windhoek",
    "code":"na",
    "continent":"Africa",
    "flag_1x1":"flags\/1x1\/na.svg",
    "flag_4x3":"flags\/4x3\/na.svg",
    "iso":true,
    "name":"Namibia",
    "coordinates":[
      18.1645134585,
      -21.9085816328
    ]
  },
  {
    "capital":"Yaren District",
    "code":"nr",
    "continent":"Oceania",
    "flag_1x1":"flags\/1x1\/nr.svg",
    "flag_4x3":"flags\/4x3\/nr.svg",
    "iso":true,
    "name":"Nauru",
    "coordinates":[
      166.9293763314,
      -0.5221021441
    ]
  },
  {
    "capital":"Kathmandu",
    "code":"np",
    "continent":"Asia",
    "flag_1x1":"flags\/1x1\/np.svg",
    "flag_4x3":"flags\/4x3\/np.svg",
    "iso":true,
    "name":"Nepal",
    "coordinates":[
      84.1338898314,
      28.3009206998
    ]
  },
  {
    "capital":"Amsterdam",
    "code":"nl",
    "continent":"Europe",
    "flag_1x1":"flags\/1x1\/nl.svg",
    "flag_4x3":"flags\/4x3\/nl.svg",
    "iso":true,
    "name":"Netherlands",
    "coordinates":[
      5.5541364261,
      52.1340541289
    ]
  },
  {
    "capital":"Noum\u00e9a",
    "code":"nc",
    "continent":"Oceania",
    "flag_1x1":"flags\/1x1\/nc.svg",
    "flag_4x3":"flags\/4x3\/nc.svg",
    "iso":true,
    "name":"New Caledonia",
    "coordinates":[
      165.5076704044,
      -21.3300337266
    ]
  },
  {
    "capital":"Wellington",
    "code":"nz",
    "continent":"Oceania",
    "flag_1x1":"flags\/1x1\/nz.svg",
    "flag_4x3":"flags\/4x3\/nz.svg",
    "iso":true,
    "name":"New Zealand",
    "coordinates":[
      170.6903554143,
      -43.8276543254
    ]
  },
  {
    "capital":"Managua",
    "code":"ni",
    "continent":"North America",
    "flag_1x1":"flags\/1x1\/ni.svg",
    "flag_4x3":"flags\/4x3\/ni.svg",
    "iso":true,
    "name":"Nicaragua",
    "coordinates":[
      -85.0160883277,
      12.8935666319
    ]
  },
  {
    "capital":"Niamey",
    "code":"ne",
    "continent":"Africa",
    "flag_1x1":"flags\/1x1\/ne.svg",
    "flag_4x3":"flags\/4x3\/ne.svg",
    "iso":true,
    "name":"Niger",
    "coordinates":[
      8.86863247,
      17.0810539241
    ]
  },
  {
    "capital":"Abuja",
    "code":"ng",
    "continent":"Africa",
    "flag_1x1":"flags\/1x1\/ng.svg",
    "flag_4x3":"flags\/4x3\/ng.svg",
    "iso":true,
    "name":"Nigeria",
    "coordinates":[
      8.1477148453,
      9.6102935203
    ]
  },
  {
    "capital":"Alofi",
    "code":"nu",
    "continent":"Oceania",
    "flag_1x1":"flags\/1x1\/nu.svg",
    "flag_4x3":"flags\/4x3\/nu.svg",
    "iso":true,
    "name":"Niue",
    "coordinates":[
      -169.868781067,
      -19.0523092168
    ]
  },
  {
    "capital":"Kingston",
    "code":"nf",
    "continent":"Oceania",
    "flag_1x1":"flags\/1x1\/nf.svg",
    "flag_4x3":"flags\/4x3\/nf.svg",
    "iso":true,
    "name":"Norfolk Island",
    "coordinates":[
      167.9525959748,
      -29.037654445
    ]
  },
  {
    "capital":"Pyongyang",
    "code":"kp",
    "continent":"Asia",
    "flag_1x1":"flags\/1x1\/kp.svg",
    "flag_4x3":"flags\/4x3\/kp.svg",
    "iso":true,
    "name":"North Korea",
    "coordinates":[
      127.3379805654,
      40.1919809147
    ]
  },
  {
    "capital":"Skopje",
    "code":"mk",
    "continent":"Europe",
    "flag_1x1":"flags\/1x1\/mk.svg",
    "flag_4x3":"flags\/4x3\/mk.svg",
    "iso":true,
    "name":"North Macedonia",
    "coordinates":[
      21.7099892387,
      41.5940289014
    ]
  },
  {
    "capital":"Belfast",
    "code":"gb-nir",
    "continent":"Europe",
    "flag_1x1":"flags\/1x1\/gb-nir.svg",
    "flag_4x3":"flags\/4x3\/gb-nir.svg",
    "iso":false,
    "name":"Northern Ireland",
    "coordinates":null
  },
  {
    "capital":"Saipan",
    "code":"mp",
    "continent":"Oceania",
    "flag_1x1":"flags\/1x1\/mp.svg",
    "flag_4x3":"flags\/4x3\/mp.svg",
    "iso":true,
    "name":"Northern Mariana Islands",
    "coordinates":[
      145.741197372,
      15.1780635164
    ]
  },
  {
    "capital":"Oslo",
    "code":"no",
    "continent":"Europe",
    "flag_1x1":"flags\/1x1\/no.svg",
    "flag_4x3":"flags\/4x3\/no.svg",
    "iso":true,
    "name":"Norway",
    "coordinates":[
      16.6702592724,
      64.9777588295
    ]
  },
  {
    "capital":"Muscat",
    "code":"om",
    "continent":"Asia",
    "flag_1x1":"flags\/1x1\/om.svg",
    "flag_4x3":"flags\/4x3\/om.svg",
    "iso":true,
    "name":"Oman",
    "coordinates":[
      55.8410881198,
      20.7242833183
    ]
  },
  {
    "capital":null,
    "code":"pc",
    "continent":null,
    "flag_1x1":"flags\/1x1\/pc.svg",
    "flag_4x3":"flags\/4x3\/pc.svg",
    "iso":false,
    "name":"Pacific Community",
    "coordinates":null
  },
  {
    "capital":"Islamabad",
    "code":"pk",
    "continent":"Asia",
    "flag_1x1":"flags\/1x1\/pk.svg",
    "flag_4x3":"flags\/4x3\/pk.svg",
    "iso":true,
    "name":"Pakistan",
    "coordinates":[
      69.0883509077,
      30.1161883714
    ]
  },
  {
    "capital":"Ngerulmud",
    "code":"pw",
    "continent":"Oceania",
    "flag_1x1":"flags\/1x1\/pw.svg",
    "flag_4x3":"flags\/4x3\/pw.svg",
    "iso":true,
    "name":"Palau",
    "coordinates":[
      134.5796508672,
      7.5347758525
    ]
  },
  {
    "capital":"Panama City",
    "code":"pa",
    "continent":"North America",
    "flag_1x1":"flags\/1x1\/pa.svg",
    "flag_4x3":"flags\/4x3\/pa.svg",
    "iso":true,
    "name":"Panama",
    "coordinates":[
      -80.1442876148,
      8.4395367496
    ]
  },
  {
    "capital":"Port Moresby",
    "code":"pg",
    "continent":"Oceania",
    "flag_1x1":"flags\/1x1\/pg.svg",
    "flag_4x3":"flags\/4x3\/pg.svg",
    "iso":true,
    "name":"Papua New Guinea",
    "coordinates":[
      144.8348942995,
      -7.1569128192
    ]
  },
  {
    "capital":"Asunci\u00f3n",
    "code":"py",
    "continent":"South America",
    "flag_1x1":"flags\/1x1\/py.svg",
    "flag_4x3":"flags\/4x3\/py.svg",
    "iso":true,
    "name":"Paraguay",
    "coordinates":[
      -58.3890635743,
      -23.4219055926
    ]
  },
  {
    "capital":"Lima",
    "code":"pe",
    "continent":"South America",
    "flag_1x1":"flags\/1x1\/pe.svg",
    "flag_4x3":"flags\/4x3\/pe.svg",
    "iso":true,
    "name":"Peru",
    "coordinates":[
      -74.1141619678,
      -8.5227179842
    ]
  },
  {
    "capital":"Manila",
    "code":"ph",
    "continent":"Asia",
    "flag_1x1":"flags\/1x1\/ph.svg",
    "flag_4x3":"flags\/4x3\/ph.svg",
    "iso":true,
    "name":"Philippines",
    "coordinates":[
      121.8220894142,
      15.5865422511
    ]
  },
  {
    "capital":"Adamstown",
    "code":"pn",
    "continent":"Oceania",
    "flag_1x1":"flags\/1x1\/pn.svg",
    "flag_4x3":"flags\/4x3\/pn.svg",
    "iso":true,
    "name":"Pitcairn",
    "coordinates":[
      -128.3149848628,
      -24.3661217476
    ]
  },
  {
    "capital":"Warsaw",
    "code":"pl",
    "continent":"Europe",
    "flag_1x1":"flags\/1x1\/pl.svg",
    "flag_4x3":"flags\/4x3\/pl.svg",
    "iso":true,
    "name":"Poland",
    "coordinates":[
      19.4357327923,
      52.0684805569
    ]
  },
  {
    "capital":"Lisbon",
    "code":"pt",
    "continent":"Europe",
    "flag_1x1":"flags\/1x1\/pt.svg",
    "flag_4x3":"flags\/4x3\/pt.svg",
    "iso":true,
    "name":"Portugal",
    "coordinates":[
      -7.9336621839,
      39.675292147
    ]
  },
  {
    "capital":"San Juan",
    "code":"pr",
    "continent":"North America",
    "flag_1x1":"flags\/1x1\/pr.svg",
    "flag_4x3":"flags\/4x3\/pr.svg",
    "iso":true,
    "name":"Puerto Rico",
    "coordinates":[
      -66.4942533959,
      18.2162240866
    ]
  },
  {
    "capital":"Doha",
    "code":"qa",
    "continent":"Asia",
    "flag_1x1":"flags\/1x1\/qa.svg",
    "flag_4x3":"flags\/4x3\/qa.svg",
    "iso":true,
    "name":"Qatar",
    "coordinates":[
      51.1979491874,
      25.3185284864
    ]
  },
  {
    "capital":"Brazzaville",
    "code":"cg",
    "continent":"Africa",
    "flag_1x1":"flags\/1x1\/cg.svg",
    "flag_4x3":"flags\/4x3\/cg.svg",
    "iso":true,
    "name":"Republic of the Congo",
    "coordinates":[
      14.8797328495,
      -0.7294391595
    ]
  },
  {
    "capital":"Bucharest",
    "code":"ro",
    "continent":"Europe",
    "flag_1x1":"flags\/1x1\/ro.svg",
    "flag_4x3":"flags\/4x3\/ro.svg",
    "iso":true,
    "name":"Romania",
    "coordinates":[
      25.0941582016,
      45.824548944
    ]
  },
  {
    "capital":"Moscow",
    "code":"ru",
    "continent":"Europe",
    "flag_1x1":"flags\/1x1\/ru.svg",
    "flag_4x3":"flags\/4x3\/ru.svg",
    "iso":true,
    "name":"Russia",
    "coordinates":[
      98.6704990698,
      59.0394342141
    ]
  },
  {
    "capital":"Kigali",
    "code":"rw",
    "continent":"Africa",
    "flag_1x1":"flags\/1x1\/rw.svg",
    "flag_4x3":"flags\/4x3\/rw.svg",
    "iso":true,
    "name":"Rwanda",
    "coordinates":[
      29.9194396818,
      -2.01468746
    ]
  },
  {
    "capital":"Saint-Denis",
    "code":"re",
    "continent":"Africa",
    "flag_1x1":"flags\/1x1\/re.svg",
    "flag_4x3":"flags\/4x3\/re.svg",
    "iso":true,
    "name":"R\u00e9union",
    "coordinates":[
      55.5439350619,
      -21.1198254607
    ]
  },
  {
    "capital":"Gustavia",
    "code":"bl",
    "continent":"North America",
    "flag_1x1":"flags\/1x1\/bl.svg",
    "flag_4x3":"flags\/4x3\/bl.svg",
    "iso":true,
    "name":"Saint Barth\u00e9lemy",
    "coordinates":[
      -62.8305161001,
      17.9056169124
    ]
  },
  {
    "capital":"Jamestown",
    "code":"sh-hl",
    "continent":"Africa",
    "flag_1x1":"flags\/1x1\/sh-hl.svg",
    "flag_4x3":"flags\/4x3\/sh-hl.svg",
    "iso":false,
    "name":"Saint Helena",
    "coordinates":null
  },
  {
    "capital":"Jamestown",
    "code":"sh",
    "continent":"Africa",
    "flag_1x1":"flags\/1x1\/sh.svg",
    "flag_4x3":"flags\/4x3\/sh.svg",
    "iso":true,
    "name":"Saint Helena, Ascension and Tristan da Cunha",
    "coordinates":[
      -5.7173916208,
      -15.9629633183
    ]
  },
  {
    "capital":"Basseterre",
    "code":"kn",
    "continent":"North America",
    "flag_1x1":"flags\/1x1\/kn.svg",
    "flag_4x3":"flags\/4x3\/kn.svg",
    "iso":true,
    "name":"Saint Kitts and Nevis",
    "coordinates":[
      -62.745603859,
      17.3147362996
    ]
  },
  {
    "capital":"Castries",
    "code":"lc",
    "continent":"North America",
    "flag_1x1":"flags\/1x1\/lc.svg",
    "flag_4x3":"flags\/4x3\/lc.svg",
    "iso":true,
    "name":"Saint Lucia",
    "coordinates":[
      -60.9689510935,
      13.8957491851
    ]
  },
  {
    "capital":"Marigot",
    "code":"mf",
    "continent":"North America",
    "flag_1x1":"flags\/1x1\/mf.svg",
    "flag_4x3":"flags\/4x3\/mf.svg",
    "iso":true,
    "name":"Saint Martin",
    "coordinates":[
      -63.0667852536,
      18.0780121132
    ]
  },
  {
    "capital":"Saint-Pierre",
    "code":"pm",
    "continent":"North America",
    "flag_1x1":"flags\/1x1\/pm.svg",
    "flag_4x3":"flags\/4x3\/pm.svg",
    "iso":true,
    "name":"Saint Pierre and Miquelon",
    "coordinates":[
      -56.3246535344,
      46.9515391362
    ]
  },
  {
    "capital":"Kingstown",
    "code":"vc",
    "continent":"North America",
    "flag_1x1":"flags\/1x1\/vc.svg",
    "flag_4x3":"flags\/4x3\/vc.svg",
    "iso":true,
    "name":"Saint Vincent and the Grenadines",
    "coordinates":[
      -61.1937663544,
      13.254808123
    ]
  },
  {
    "capital":"Apia",
    "code":"ws",
    "continent":"Oceania",
    "flag_1x1":"flags\/1x1\/ws.svg",
    "flag_4x3":"flags\/4x3\/ws.svg",
    "iso":true,
    "name":"Samoa",
    "coordinates":[
      -172.4410765574,
      -13.6342529533
    ]
  },
  {
    "capital":"San Marino",
    "code":"sm",
    "continent":"Europe",
    "flag_1x1":"flags\/1x1\/sm.svg",
    "flag_4x3":"flags\/4x3\/sm.svg",
    "iso":true,
    "name":"San Marino",
    "coordinates":[
      12.4612783496,
      43.9428207291
    ]
  },
  {
    "capital":"S\u00e3o Tom\u00e9",
    "code":"st",
    "continent":"Africa",
    "flag_1x1":"flags\/1x1\/st.svg",
    "flag_4x3":"flags\/4x3\/st.svg",
    "iso":true,
    "name":"Sao Tome and Principe",
    "coordinates":[
      6.6061587969,
      0.2274470429
    ]
  },
  {
    "capital":"Riyadh",
    "code":"sa",
    "continent":"Asia",
    "flag_1x1":"flags\/1x1\/sa.svg",
    "flag_4x3":"flags\/4x3\/sa.svg",
    "iso":true,
    "name":"Saudi Arabia",
    "coordinates":[
      44.6009581782,
      24.1360381448
    ]
  },
  {
    "capital":"Edinburgh",
    "code":"gb-sct",
    "continent":"Europe",
    "flag_1x1":"flags\/1x1\/gb-sct.svg",
    "flag_4x3":"flags\/4x3\/gb-sct.svg",
    "iso":false,
    "name":"Scotland",
    "coordinates":null
  },
  {
    "capital":"Dakar",
    "code":"sn",
    "continent":"Africa",
    "flag_1x1":"flags\/1x1\/sn.svg",
    "flag_4x3":"flags\/4x3\/sn.svg",
    "iso":true,
    "name":"Senegal",
    "coordinates":[
      -14.6108753684,
      14.2288614918
    ]
  },
  {
    "capital":"Belgrade",
    "code":"rs",
    "continent":"Europe",
    "flag_1x1":"flags\/1x1\/rs.svg",
    "flag_4x3":"flags\/4x3\/rs.svg",
    "iso":true,
    "name":"Serbia",
    "coordinates":[
      20.856774444,
      44.0267987013
    ]
  },
  {
    "capital":"Victoria",
    "code":"sc",
    "continent":"Africa",
    "flag_1x1":"flags\/1x1\/sc.svg",
    "flag_4x3":"flags\/4x3\/sc.svg",
    "iso":true,
    "name":"Seychelles",
    "coordinates":[
      55.472507896,
      -4.6600023188
    ]
  },
  {
    "capital":"Freetown",
    "code":"sl",
    "continent":"Africa",
    "flag_1x1":"flags\/1x1\/sl.svg",
    "flag_4x3":"flags\/4x3\/sl.svg",
    "iso":true,
    "name":"Sierra Leone",
    "coordinates":[
      -11.7865669573,
      8.5613303848
    ]
  },
  {
    "capital":"Singapore",
    "code":"sg",
    "continent":"Asia",
    "flag_1x1":"flags\/1x1\/sg.svg",
    "flag_4x3":"flags\/4x3\/sg.svg",
    "iso":true,
    "name":"Singapore",
    "coordinates":[
      103.8102575763,
      1.352825189
    ]
  },
  {
    "capital":"Philipsburg",
    "code":"sx",
    "continent":"North America",
    "flag_1x1":"flags\/1x1\/sx.svg",
    "flag_4x3":"flags\/4x3\/sx.svg",
    "iso":true,
    "name":"Sint Maarten",
    "coordinates":[
      -63.0688313592,
      18.0394260846
    ]
  },
  {
    "capital":"Bratislava",
    "code":"sk",
    "continent":"Europe",
    "flag_1x1":"flags\/1x1\/sk.svg",
    "flag_4x3":"flags\/4x3\/sk.svg",
    "iso":true,
    "name":"Slovakia",
    "coordinates":[
      19.5810153625,
      48.6980839052
    ]
  },
  {
    "capital":"Ljubljana",
    "code":"si",
    "continent":"Europe",
    "flag_1x1":"flags\/1x1\/si.svg",
    "flag_4x3":"flags\/4x3\/si.svg",
    "iso":true,
    "name":"Slovenia",
    "coordinates":[
      14.8906369,
      46.1375922956
    ]
  },
  {
    "capital":"Honiara",
    "code":"sb",
    "continent":"Oceania",
    "flag_1x1":"flags\/1x1\/sb.svg",
    "flag_4x3":"flags\/4x3\/sb.svg",
    "iso":true,
    "name":"Solomon Islands",
    "coordinates":[
      160.1647579503,
      -9.6131047346
    ]
  },
  {
    "capital":"Mogadishu",
    "code":"so",
    "continent":"Africa",
    "flag_1x1":"flags\/1x1\/so.svg",
    "flag_4x3":"flags\/4x3\/so.svg",
    "iso":true,
    "name":"Somalia",
    "coordinates":[
      45.4003786724,
      6.5245345731
    ]
  },
  {
    "capital":"Pretoria",
    "code":"za",
    "continent":"Africa",
    "flag_1x1":"flags\/1x1\/za.svg",
    "flag_4x3":"flags\/4x3\/za.svg",
    "iso":true,
    "name":"South Africa",
    "coordinates":[
      24.7525274649,
      -28.5536193068
    ]
  },
  {
    "capital":"King Edward Point",
    "code":"gs",
    "continent":"Antarctica",
    "flag_1x1":"flags\/1x1\/gs.svg",
    "flag_4x3":"flags\/4x3\/gs.svg",
    "iso":true,
    "name":"South Georgia and the South Sandwich Islands",
    "coordinates":[
      -36.775095759,
      -54.3766644386
    ]
  },
  {
    "capital":"Seoul",
    "code":"kr",
    "continent":"Asia",
    "flag_1x1":"flags\/1x1\/kr.svg",
    "flag_4x3":"flags\/4x3\/kr.svg",
    "iso":true,
    "name":"South Korea",
    "coordinates":[
      127.7622455136,
      36.4023867125
    ]
  },
  {
    "capital":"Juba",
    "code":"ss",
    "continent":"Africa",
    "flag_1x1":"flags\/1x1\/ss.svg",
    "flag_4x3":"flags\/4x3\/ss.svg",
    "iso":true,
    "name":"South Sudan",
    "coordinates":[
      30.3851856902,
      7.6577820418
    ]
  },
  {
    "capital":"Madrid",
    "code":"es",
    "continent":"Europe",
    "flag_1x1":"flags\/1x1\/es.svg",
    "flag_4x3":"flags\/4x3\/es.svg",
    "iso":true,
    "name":"Spain",
    "coordinates":[
      -3.651625141,
      40.3650083367
    ]
  },
  {
    "capital":"Sri Jayawardenepura Kotte, Colombo",
    "code":"lk",
    "continent":"Asia",
    "flag_1x1":"flags\/1x1\/lk.svg",
    "flag_4x3":"flags\/4x3\/lk.svg",
    "iso":true,
    "name":"Sri Lanka",
    "coordinates":[
      80.6693116977,
      7.6966309393
    ]
  },
  {
    "capital":"Ramallah",
    "code":"ps",
    "continent":"Asia",
    "flag_1x1":"flags\/1x1\/ps.svg",
    "flag_4x3":"flags\/4x3\/ps.svg",
    "iso":true,
    "name":"State of Palestine",
    "coordinates":[
      35.2425118415,
      31.9308187365
    ]
  },
  {
    "capital":"Khartoum",
    "code":"sd",
    "continent":"Africa",
    "flag_1x1":"flags\/1x1\/sd.svg",
    "flag_4x3":"flags\/4x3\/sd.svg",
    "iso":true,
    "name":"Sudan",
    "coordinates":[
      29.9514582836,
      15.6706023098
    ]
  },
  {
    "capital":"Paramaribo",
    "code":"sr",
    "continent":"South America",
    "flag_1x1":"flags\/1x1\/sr.svg",
    "flag_4x3":"flags\/4x3\/sr.svg",
    "iso":true,
    "name":"Suriname",
    "coordinates":[
      -55.8555143116,
      4.0987235959
    ]
  },
  {
    "capital":"Longyearbyen",
    "code":"sj",
    "continent":"Europe",
    "flag_1x1":"flags\/1x1\/sj.svg",
    "flag_4x3":"flags\/4x3\/sj.svg",
    "iso":true,
    "name":"Svalbard and Jan Mayen",
    "coordinates":[
      16.0363788515,
      78.5731893647
    ]
  },
  {
    "capital":"Stockholm",
    "code":"se",
    "continent":"Europe",
    "flag_1x1":"flags\/1x1\/se.svg",
    "flag_4x3":"flags\/4x3\/se.svg",
    "iso":true,
    "name":"Sweden",
    "coordinates":[
      17.062431988,
      62.7342098611
    ]
  },
  {
    "capital":"Bern",
    "code":"ch",
    "continent":"Europe",
    "flag_1x1":"flags\/1x1\/ch.svg",
    "flag_4x3":"flags\/4x3\/ch.svg",
    "iso":true,
    "name":"Switzerland",
    "coordinates":[
      8.2869287949,
      46.7367812868
    ]
  },
  {
    "capital":"Damascus",
    "code":"sy",
    "continent":"Asia",
    "flag_1x1":"flags\/1x1\/sy.svg",
    "flag_4x3":"flags\/4x3\/sy.svg",
    "iso":true,
    "name":"Syria",
    "coordinates":[
      38.511732314,
      35.0975110606
    ]
  },
  {
    "capital":"Taipei",
    "code":"tw",
    "continent":"Asia",
    "flag_1x1":"flags\/1x1\/tw.svg",
    "flag_4x3":"flags\/4x3\/tw.svg",
    "iso":true,
    "name":"Taiwan",
    "coordinates":[
      121.597366,
      25.105497
    ]
  },
  {
    "capital":"Dushanbe",
    "code":"tj",
    "continent":"Asia",
    "flag_1x1":"flags\/1x1\/tj.svg",
    "flag_4x3":"flags\/4x3\/tj.svg",
    "iso":true,
    "name":"Tajikistan",
    "coordinates":[
      70.9421528107,
      38.5693313838
    ]
  },
  {
    "capital":"Dodoma",
    "code":"tz",
    "continent":"Africa",
    "flag_1x1":"flags\/1x1\/tz.svg",
    "flag_4x3":"flags\/4x3\/tz.svg",
    "iso":true,
    "name":"Tanzania",
    "coordinates":[
      34.8183220606,
      -6.35579444
    ]
  },
  {
    "capital":"Bangkok",
    "code":"th",
    "continent":"Asia",
    "flag_1x1":"flags\/1x1\/th.svg",
    "flag_4x3":"flags\/4x3\/th.svg",
    "iso":true,
    "name":"Thailand",
    "coordinates":[
      101.0867511621,
      13.6622278475
    ]
  },
  {
    "capital":"Dili",
    "code":"tl",
    "continent":"Asia",
    "flag_1x1":"flags\/1x1\/tl.svg",
    "flag_4x3":"flags\/4x3\/tl.svg",
    "iso":true,
    "name":"Timor-Leste",
    "coordinates":[
      125.9502404956,
      -8.8098946306
    ]
  },
  {
    "capital":"Lom\u00e9",
    "code":"tg",
    "continent":"Africa",
    "flag_1x1":"flags\/1x1\/tg.svg",
    "flag_4x3":"flags\/4x3\/tg.svg",
    "iso":true,
    "name":"Togo",
    "coordinates":[
      0.8990857571,
      8.6607430377
    ]
  },
  {
    "capital":"Nukunonu, Atafu,Tokelau",
    "code":"tk",
    "continent":"Oceania",
    "flag_1x1":"flags\/1x1\/tk.svg",
    "flag_4x3":"flags\/4x3\/tk.svg",
    "iso":true,
    "name":"Tokelau",
    "coordinates":[
      -171.8526595072,
      -9.1951747673
    ]
  },
  {
    "capital":"Nuku\u02bbalofa",
    "code":"to",
    "continent":"Oceania",
    "flag_1x1":"flags\/1x1\/to.svg",
    "flag_4x3":"flags\/4x3\/to.svg",
    "iso":true,
    "name":"Tonga",
    "coordinates":[
      -175.2041587851,
      -21.1592721282
    ]
  },
  {
    "capital":"Port of Spain",
    "code":"tt",
    "continent":"South America",
    "flag_1x1":"flags\/1x1\/tt.svg",
    "flag_4x3":"flags\/4x3\/tt.svg",
    "iso":true,
    "name":"Trinidad and Tobago",
    "coordinates":[
      -61.3723657998,
      10.4155156383
    ]
  },
  {
    "capital":"Edinburgh of the Seven Seas",
    "code":"sh-ta",
    "continent":"Africa",
    "flag_1x1":"flags\/1x1\/sh-ta.svg",
    "flag_4x3":"flags\/4x3\/sh-ta.svg",
    "iso":false,
    "name":"Tristan da Cunha",
    "coordinates":null
  },
  {
    "capital":"Tunis",
    "code":"tn",
    "continent":"Africa",
    "flag_1x1":"flags\/1x1\/tn.svg",
    "flag_4x3":"flags\/4x3\/tn.svg",
    "iso":true,
    "name":"Tunisia",
    "coordinates":[
      9.655875517,
      34.0863617957
    ]
  },
  {
    "capital":"Ashgabat",
    "code":"tm",
    "continent":"Asia",
    "flag_1x1":"flags\/1x1\/tm.svg",
    "flag_4x3":"flags\/4x3\/tm.svg",
    "iso":true,
    "name":"Turkmenistan",
    "coordinates":[
      58.4577357627,
      39.06069118
    ]
  },
  {
    "capital":"Cockburn Town",
    "code":"tc",
    "continent":"North America",
    "flag_1x1":"flags\/1x1\/tc.svg",
    "flag_4x3":"flags\/4x3\/tc.svg",
    "iso":true,
    "name":"Turks and Caicos Islands",
    "coordinates":[
      -71.7405894681,
      21.7998654275
    ]
  },
  {
    "capital":"Funafuti",
    "code":"tv",
    "continent":"Oceania",
    "flag_1x1":"flags\/1x1\/tv.svg",
    "flag_4x3":"flags\/4x3\/tv.svg",
    "iso":true,
    "name":"Tuvalu",
    "coordinates":[
      179.2178339776,
      -8.5147015064
    ]
  },
  {
    "capital":"Ankara",
    "code":"tr",
    "continent":"Asia",
    "flag_1x1":"flags\/1x1\/tr.svg",
    "flag_4x3":"flags\/4x3\/tr.svg",
    "iso":true,
    "name":"T\u00fcrkiye",
    "coordinates":[
      35.5688676408,
      38.9320736312
    ]
  },
  {
    "capital":"Kampala",
    "code":"ug",
    "continent":"Africa",
    "flag_1x1":"flags\/1x1\/ug.svg",
    "flag_4x3":"flags\/4x3\/ug.svg",
    "iso":true,
    "name":"Uganda",
    "coordinates":[
      32.3437176846,
      1.2821729218
    ]
  },
  {
    "capital":"Kiev",
    "code":"ua",
    "continent":"Europe",
    "flag_1x1":"flags\/1x1\/ua.svg",
    "flag_4x3":"flags\/4x3\/ua.svg",
    "iso":true,
    "name":"Ukraine",
    "coordinates":[
      31.2737720844,
      48.6575325156
    ]
  },
  {
    "capital":"Abu Dhabi",
    "code":"ae",
    "continent":"Asia",
    "flag_1x1":"flags\/1x1\/ae.svg",
    "flag_4x3":"flags\/4x3\/ae.svg",
    "iso":true,
    "name":"United Arab Emirates",
    "coordinates":[
      54.2792052579,
      24.1825029231
    ]
  },
  {
    "capital":"London",
    "code":"gb",
    "continent":"Europe",
    "flag_1x1":"flags\/1x1\/gb.svg",
    "flag_4x3":"flags\/4x3\/gb.svg",
    "iso":true,
    "name":"United Kingdom",
    "coordinates":[
      -2.8529439093,
      53.9784473508
    ]
  },
  {
    "capital":null,
    "code":"un",
    "continent":null,
    "flag_1x1":"flags\/1x1\/un.svg",
    "flag_4x3":"flags\/4x3\/un.svg",
    "iso":false,
    "name":"United Nations",
    "coordinates":null
  },
  {
    "capital":"Washington, D.C.",
    "code":"um",
    "continent":"North America",
    "flag_1x1":"flags\/1x1\/um.svg",
    "flag_4x3":"flags\/4x3\/um.svg",
    "iso":true,
    "name":"United States Minor Outlying Islands",
    "coordinates":[
      166.6380033975,
      19.3020458122
    ]
  },
  {
    "capital":"Washington, D.C.",
    "code":"us",
    "continent":"North America",
    "flag_1x1":"flags\/1x1\/us.svg",
    "flag_4x3":"flags\/4x3\/us.svg",
    "iso":true,
    "name":"United States of America",
    "coordinates":[
      -96.3316166083,
      38.820808919
    ]
  },
  {
    "capital":null,
    "code":"xx",
    "continent":null,
    "flag_1x1":"flags\/1x1\/xx.svg",
    "flag_4x3":"flags\/4x3\/xx.svg",
    "iso":false,
    "name":"Unknown",
    "coordinates":null
  },
  {
    "capital":"Montevideo",
    "code":"uy",
    "continent":"South America",
    "flag_1x1":"flags\/1x1\/uy.svg",
    "flag_4x3":"flags\/4x3\/uy.svg",
    "iso":true,
    "name":"Uruguay",
    "coordinates":[
      -56.0191952346,
      -32.7819504383
    ]
  },
  {
    "capital":"Tashkent",
    "code":"uz",
    "continent":"Asia",
    "flag_1x1":"flags\/1x1\/uz.svg",
    "flag_4x3":"flags\/4x3\/uz.svg",
    "iso":true,
    "name":"Uzbekistan",
    "coordinates":[
      63.8548297594,
      41.4879065245
    ]
  },
  {
    "capital":"Port Vila",
    "code":"vu",
    "continent":"Oceania",
    "flag_1x1":"flags\/1x1\/vu.svg",
    "flag_4x3":"flags\/4x3\/vu.svg",
    "iso":true,
    "name":"Vanuatu",
    "coordinates":[
      166.8491273567,
      -15.1891321217
    ]
  },
  {
    "capital":"Caracas",
    "code":"ve",
    "continent":"South America",
    "flag_1x1":"flags\/1x1\/ve.svg",
    "flag_4x3":"flags\/4x3\/ve.svg",
    "iso":true,
    "name":"Venezuela",
    "coordinates":[
      -66.3649213599,
      7.1483247605
    ]
  },
  {
    "capital":"Hanoi",
    "code":"vn",
    "continent":"Asia",
    "flag_1x1":"flags\/1x1\/vn.svg",
    "flag_4x3":"flags\/4x3\/vn.svg",
    "iso":true,
    "name":"Vietnam",
    "coordinates":[
      105.9133883276,
      16.5173471708
    ]
  },
  {
    "capital":"Road Town",
    "code":"vg",
    "continent":"North America",
    "flag_1x1":"flags\/1x1\/vg.svg",
    "flag_4x3":"flags\/4x3\/vg.svg",
    "iso":true,
    "name":"Virgin Islands (British)",
    "coordinates":[
      -64.6240651926,
      18.4219581962
    ]
  },
  {
    "capital":"Charlotte Amalie",
    "code":"vi",
    "continent":"North America",
    "flag_1x1":"flags\/1x1\/vi.svg",
    "flag_4x3":"flags\/4x3\/vi.svg",
    "iso":true,
    "name":"Virgin Islands (U.S.)",
    "coordinates":[
      -64.7615534141,
      17.7380097088
    ]
  },
  {
    "capital":"Cardiff",
    "code":"gb-wls",
    "continent":"Europe",
    "flag_1x1":"flags\/1x1\/gb-wls.svg",
    "flag_4x3":"flags\/4x3\/gb-wls.svg",
    "iso":false,
    "name":"Wales",
    "coordinates":null
  },
  {
    "capital":"Mata-Utu",
    "code":"wf",
    "continent":"Oceania",
    "flag_1x1":"flags\/1x1\/wf.svg",
    "flag_4x3":"flags\/4x3\/wf.svg",
    "iso":true,
    "name":"Wallis and Futuna",
    "coordinates":[
      -178.1273555578,
      -14.2834423078
    ]
  },
  {
    "capital":"Laayoune",
    "code":"eh",
    "continent":"Africa",
    "flag_1x1":"flags\/1x1\/eh.svg",
    "flag_4x3":"flags\/4x3\/eh.svg",
    "iso":true,
    "name":"Western Sahara",
    "coordinates":[
      -13.1625,
      27.125286
    ]
  },
  {
    "capital":"Sana'a",
    "code":"ye",
    "continent":"Asia",
    "flag_1x1":"flags\/1x1\/ye.svg",
    "flag_4x3":"flags\/4x3\/ye.svg",
    "iso":true,
    "name":"Yemen",
    "coordinates":[
      47.4681579321,
      16.0013926163
    ]
  },
  {
    "capital":"Lusaka",
    "code":"zm",
    "continent":"Africa",
    "flag_1x1":"flags\/1x1\/zm.svg",
    "flag_4x3":"flags\/4x3\/zm.svg",
    "iso":true,
    "name":"Zambia",
    "coordinates":[
      27.7552136343,
      -13.1628329532
    ]
  },
  {
    "capital":"Harare",
    "code":"zw",
    "continent":"Africa",
    "flag_1x1":"flags\/1x1\/zw.svg",
    "flag_4x3":"flags\/4x3\/zw.svg",
    "iso":true,
    "name":"Zimbabwe",
    "coordinates":[
      29.7178296407,
      -18.9270012198
    ]
  }
]